,City,Cloudiness,Country,Date,Humidity,Lat,Lng,Max Temp,Wind Speed
0,Souillac,0,FR,1535002200,82,45.6,-0.6,66.2,2.24
1,Iquitos,20,PE,1535001780,94,-3.75,-73.25,69.8,3.36
2,Bideford,75,GB,1535001600,93,51.02,-4.21,60.8,10.29
3,Mataura,92,NZ,1535002759,97,-46.19,168.86,44.59,6.73
4,Hobart,20,AU,1535000400,50,-42.88,147.33,55.4,5.82
5,Brookings,1,US,1535001300,74,44.31,-96.8,64.4,11.41
6,Rubik,0,AL,1535001600,82,41.77,19.78,68.0,2.24
7,Plettenberg Bay,36,ZA,1535003014,100,-34.05,23.37,56.2,11.43
8,Berekum,92,GH,1535003014,99,7.45,-2.58,69.61,4.16
9,Punta Arenas,75,CL,1535000400,93,-53.16,-70.91,37.4,25.28
10,Nikolskoye,0,RU,1535000400,72,59.7,30.79,59.0,11.18
11,Kapaa,75,US,1535000160,81,22.08,-159.32,84.02,19.46
12,Bredasdorp,88,ZA,1535000400,81,-34.53,20.04,50.0,3.36
13,Lac du Bonnet,0,CA,1535003015,53,50.25,-96.06,64.84,13.44
14,Ciro Marina,40,IT,1535000100,93,39.37,17.13,55.4,28.86
15,Ushuaia,90,AR,1535000400,86,-54.81,-68.31,41.0,12.75
16,Hami,88,CN,1535003016,33,42.84,93.51,85.63,4.16
17,Iranshahr,0,IR,1535000400,10,27.21,60.69,100.4,4.7
18,Ancud,36,CL,1535003016,80,-41.87,-73.83,43.6,8.97
19,Bluff,0,AU,1535003017,20,-23.58,149.07,79.33,7.4
20,Rikitea,36,PF,1535003017,100,-23.12,-134.97,67.63,25.08
21,Teguldet,48,RU,1535003017,73,57.31,88.17,62.68,5.17
22,Honningsvag,75,NO,1534998000,81,70.98,25.97,46.4,8.05
23,Guaymas,80,MX,1535003019,69,27.92,-110.9,84.19,4.05
24,Atar,48,MR,1535003019,65,20.52,-13.05,77.89,2.59
25,Chepareria,80,KE,1535003019,97,1.32,35.2,59.44,1.36
26,Geraldton,40,CA,1535000400,82,49.72,-86.95,57.2,3.36
27,Hilo,90,US,1535000820,87,19.71,-155.08,77.0,8.05
28,Tuktoyaktuk,75,CA,1535000400,86,69.44,-133.03,37.4,5.82
29,Tasiilaq,0,GL,1534999800,80,65.61,-37.64,41.0,2.24
30,Arraial do Cabo,56,BR,1535002785,92,-22.97,-42.02,70.33,17.47
31,Maldonado,0,UY,1535000400,87,-34.91,-54.96,42.8,3.36
32,Uglovskoye,8,RU,1535003023,74,51.36,80.19,67.9,10.65
33,Jamestown,76,AU,1535003016,98,-33.21,138.6,49.18,8.97
34,Barrow,64,AR,1535003023,52,-38.31,-60.23,50.26,24.52
35,Busselton,64,AU,1535002762,100,-33.64,115.35,59.89,3.6
36,Palu,80,ID,1535003024,83,-0.9,119.87,73.84,1.7
37,Tilichiki,56,RU,1535003024,68,60.47,166.1,60.79,3.49
38,Severo-Kurilsk,32,RU,1535002837,88,50.68,156.12,55.66,1.92
39,Jiangkou,8,CN,1535003025,76,30.7,117.56,83.47,8.63
40,Beringovskiy,100,RU,1535003025,99,63.05,179.32,50.08,17.47
41,Bambous Virieux,40,MU,1535000400,61,-20.34,57.76,77.0,11.41
42,Porto Novo,20,BR,1535000400,82,-23.68,-45.44,62.6,2.93
43,Albany,75,US,1535000040,72,42.65,-73.75,66.02,5.82
44,Beira,75,ES,1535002200,100,43.2,-8.36,62.6,2.48
45,Sao Gabriel da Cachoeira,80,BR,1535003026,96,-0.13,-67.09,72.31,0.81
46,Ulladulla,75,AU,1535000400,54,-35.36,150.48,57.2,10.29
47,Saint George,0,GR,1535001600,53,39.45,22.34,73.4,6.93
48,Mecca,0,SA,1535002982,32,21.43,39.83,94.45,4.61
49,Katangli,100,RU,1535003027,95,51.71,143.23,54.31,8.19
50,Thinadhoo,76,MV,1535002776,99,0.53,72.93,83.83,10.76
51,Castro,76,CL,1535002905,88,-42.48,-73.76,43.06,9.64
52,Morrope,90,PE,1535000400,29,-6.54,-80.02,66.2,13.87
53,Yenagoa,92,NG,1535003028,96,4.92,6.26,73.21,6.29
54,Hermanus,32,ZA,1535003028,100,-34.42,19.24,43.24,2.71
55,Makasar,40,ID,1535002200,59,-6.28,106.88,89.6,12.75
56,Bethel,90,US,1534999980,92,60.79,-161.76,51.98,5.82
57,Nautla,92,MX,1535003029,100,20.22,-96.78,79.96,8.75
58,Maniitsoq,92,GL,1535003029,98,65.42,-52.9,40.0,10.65
59,Yanam,44,IN,1535003030,86,16.73,82.22,86.71,16.02
60,Hithadhoo,56,MV,1535002774,100,-0.6,73.08,82.21,4.61
61,Port Elizabeth,20,US,1535000160,89,39.31,-74.98,73.94,5.82
62,Raudeberg,75,NO,1535001600,87,61.99,5.14,53.6,12.75
63,Khatanga,0,RU,1535003030,87,71.98,102.47,59.98,4.38
64,Carnarvon,0,ZA,1535002846,65,-30.97,22.13,27.13,2.93
65,Thompson,90,CA,1535000400,49,55.74,-97.86,48.2,24.16
66,Yurimaguas,32,PE,1535003031,95,-5.9,-76.1,70.51,1.92
67,Rio de Janeiro,75,BR,1535000400,94,-22.91,-43.21,71.6,4.7
68,Arlit,0,NE,1535003031,59,18.74,7.39,80.14,9.19
69,Palana,12,RU,1535003032,73,59.08,159.95,56.83,3.49
70,Praia,24,BR,1535003032,86,-20.25,-43.81,51.88,5.39
71,Chokurdakh,0,RU,1535003032,69,70.62,147.9,54.04,8.41
72,Mar del Plata,0,AR,1535003032,57,-46.43,-67.52,49.09,21.27
73,Cape Town,92,ZA,1535003033,100,-33.93,18.42,54.85,5.73
74,Turukhansk,20,RU,1535002780,69,65.8,87.96,63.13,18.48
75,Vaini,92,IN,1535002758,99,15.34,74.49,72.04,9.75
76,Dikson,8,RU,1535003033,88,73.51,80.55,47.83,6.73
77,Srednekolymsk,0,RU,1535003033,61,67.46,153.71,58.18,3.27
78,Ust-Kuyga,64,RU,1535003034,95,70.0,135.55,53.14,4.38
79,Rongcheng,92,CN,1535003034,96,37.16,122.42,76.9,20.38
80,Hukuntsi,0,BW,1535003034,30,-23.98,21.76,46.03,4.27
81,Codrington,80,AU,1535003034,54,-28.95,153.24,63.76,2.93
82,Petropavlovsk-Kamchatskiy,0,RU,1535000400,62,53.05,158.65,59.0,13.42
83,Victoria,75,BN,1535002200,70,5.28,115.24,89.6,4.7
84,New Norfolk,20,AU,1535000400,50,-42.78,147.06,55.4,5.82
85,Puerto Ayora,20,EC,1535002760,100,-0.74,-90.35,71.14,13.0
86,Brewster,1,US,1535001300,88,41.76,-70.08,69.08,4.7
87,College,90,US,1535000880,76,64.86,-147.8,54.32,4.7
88,Lebu,80,ET,1535002797,99,8.96,38.73,56.47,3.94
89,Bathsheba,40,BB,1535000400,78,13.22,-59.52,80.6,19.46
90,Cabo San Lucas,5,MX,1534999260,58,22.89,-109.91,82.4,9.98
91,Kulhudhuffushi,24,MV,1535003036,98,6.62,73.07,83.38,15.23
92,Clyde River,90,CA,1535000400,100,70.47,-68.59,37.4,6.93
93,Cidreira,88,BR,1535003037,99,-30.17,-50.22,52.96,17.25
94,Oranjemund,0,ZA,1535003037,99,-28.55,16.43,55.3,18.48
95,Atuona,0,PF,1535003037,99,-9.8,-139.03,80.5,11.32
96,East Hemet,1,US,1535002500,62,33.74,-116.94,78.08,2.48
97,Marsh Harbour,0,BS,1535003038,100,26.54,-77.06,82.48,10.42
98,Ngunguru,20,NZ,1535003038,100,-35.62,174.5,56.56,17.47
99,Nanortalik,88,GL,1535002829,94,60.14,-45.24,41.8,15.9
100,Saint-Philippe,1,CA,1535002500,82,45.36,-73.48,60.8,3.36
101,Alofi,68,NU,1535000400,78,-19.06,-169.92,75.2,4.7
102,Fallon,1,US,1535000160,56,46.84,-105.12,68.0,3.36
103,Georgetown,40,GY,1535000400,100,6.8,-58.16,75.2,4.7
104,Viedma,92,AR,1535003039,29,-40.81,-62.99,60.61,21.16
105,Samana,24,EC,1535003040,98,0.12,-76.97,68.44,2.15
106,Saskylakh,44,RU,1535003040,89,71.97,114.09,59.08,9.31
107,Kaitangata,92,NZ,1535003040,95,-46.28,169.85,44.77,5.95
108,Meulaboh,100,ID,1535003040,100,4.14,96.13,77.98,2.04
109,Adrar,0,DZ,1535000400,28,27.87,-0.29,86.0,18.34
110,Iqaluit,90,CA,1535000400,93,63.75,-68.52,42.8,13.87
111,Falmouth,90,GB,1534999800,100,50.16,-5.07,60.8,6.93
112,Port Alfred,0,ZA,1535002775,100,-33.59,26.89,55.39,8.63
113,Cockburn Town,12,TC,1535002849,98,21.46,-71.14,83.11,19.82
114,San Andres,0,PH,1535003042,93,13.32,122.68,85.0,22.17
115,Kijang,75,KR,1535000400,62,35.24,129.21,87.8,24.16
116,Asekeyevo,12,RU,1535003042,81,53.57,52.8,61.6,11.21
117,Port Macquarie,12,AU,1535000400,51,-31.43,152.91,62.6,11.41
118,Saldanha,0,PT,1535003022,89,41.42,-6.55,56.92,2.59
119,Ribeira Grande,12,PT,1535003043,100,38.52,-28.7,73.66,13.78
120,Camocim,36,BR,1535002908,92,-2.9,-40.84,74.38,11.43
121,Kupang,40,ID,1535002200,46,-10.16,123.6,89.6,6.93
122,Hambantota,56,LK,1535003044,87,6.12,81.12,83.74,18.25
123,Mahibadhoo,36,MV,1535003044,100,3.78,72.97,82.84,11.65
124,Dingle,36,PH,1535003044,69,11.0,122.67,85.9,11.77
125,Saint Andrews,88,NZ,1535003044,100,-44.53,171.19,40.54,3.38
126,Aykhal,0,RU,1535003045,81,65.95,111.51,54.49,8.86
127,Jinchang,48,CN,1535003045,66,38.52,102.19,69.97,6.62
128,Rocha,0,UY,1535003046,84,-34.48,-54.34,33.97,3.38
129,Alencon,20,FR,1535002200,88,48.43,0.08,62.6,3.36
130,Hirado,75,JP,1535000400,66,33.32,129.49,89.6,8.05
131,Guerrero Negro,56,MX,1535002856,97,27.97,-114.04,70.33,6.96
132,Zyryanka,0,RU,1535003046,55,65.73,150.89,59.71,4.38
133,Areosa,90,PT,1535002200,100,41.72,-8.86,60.8,2.24
134,Faya,0,SA,1535000400,23,18.39,42.45,77.0,3.36
135,San Jose,92,PH,1535002998,99,15.79,120.99,75.64,4.38
136,Amahai,92,ID,1535003049,100,-3.31,129.0,78.07,10.2
137,Yellowknife,75,CA,1535000400,61,62.45,-114.38,46.4,6.93
138,Jumla,80,NP,1535003049,97,29.28,82.18,49.99,1.59
139,Tabat,48,ID,1535003049,73,-2.64,115.23,85.18,2.93
140,Porbandar,92,IN,1535003050,91,21.64,69.61,80.05,19.71
141,Imbituba,0,BR,1535000400,100,-28.24,-48.67,57.2,4.7
142,Kodiak,1,US,1534999980,100,39.95,-94.76,60.98,5.06
143,Suamico,1,US,1535002500,81,44.63,-88.04,62.96,3.36
144,Champerico,44,MX,1535003051,86,16.38,-93.6,72.94,3.71
145,Otane,20,NZ,1535003051,89,-39.89,176.62,41.53,6.06
146,Lovozero,8,RU,1535003051,68,68.01,35.02,51.88,3.15
147,Quatre Cocos,40,MU,1535000400,61,-20.21,57.76,77.0,11.41
148,Samarai,68,PG,1535003051,100,-10.62,150.67,77.8,13.44
149,Butaritari,36,KI,1535003052,100,3.07,172.79,82.84,8.97
150,Zapolyarnyy,20,RU,1535001600,87,69.43,30.82,48.2,9.17
151,Narsaq,56,GL,1534999800,65,60.91,-46.05,41.0,2.24
152,Avarua,0,CK,1535003053,100,-21.21,-159.78,73.93,16.46
153,Pisco,90,PE,1535000400,77,-13.71,-76.2,62.6,2.24
154,Chadiza,0,ZM,1535003053,54,-14.06,32.43,68.08,8.63
155,Chuy,44,UY,1535003053,90,-33.69,-53.46,42.34,2.26
156,Parana,0,BR,1535000400,100,-7.52,-72.89,68.0,2.24
157,Yerbogachen,12,RU,1535003054,69,61.28,108.01,61.06,4.16
158,Mount Isa,0,AU,1535000400,12,-20.73,139.49,86.0,11.41
159,Manicore,44,BR,1535002798,88,-5.81,-61.3,75.46,2.26
160,Cairns,20,AU,1535000400,57,-16.92,145.77,77.0,11.41
161,Inongo,92,CD,1535003055,90,-1.93,18.29,73.12,3.38
162,Ouargaye,88,BF,1535003055,98,11.5,0.06,70.51,3.6
163,Ponta Delgada,20,PT,1535002200,82,37.73,-25.67,68.0,4.7
164,Kozhevnikovo,44,RU,1535003056,75,56.26,83.98,61.6,9.75
165,Itacoatiara,68,BR,1535002916,74,-3.14,-58.44,78.88,2.59
166,Kholmogory,0,RU,1535000400,81,64.23,41.65,53.6,4.47
167,San Patricio,0,PY,1535002779,89,-26.98,-56.83,39.64,2.59
168,Erenhot,24,CN,1535003056,40,43.65,111.97,82.84,4.38
169,Surt,0,LY,1535003056,97,31.21,16.59,79.96,5.73
170,Byron Bay,40,AU,1535002200,49,-28.65,153.62,68.0,10.29
171,Roald,75,NO,1535001600,71,62.58,6.12,55.4,5.82
172,Qaanaaq,92,GL,1535003057,100,77.48,-69.36,35.59,4.05
173,Katsuura,75,JP,1535000400,66,33.93,134.5,87.8,17.22
174,Xapuri,0,BR,1535003058,91,-10.65,-68.5,64.21,3.15
175,Faanui,36,PF,1535003058,100,-16.48,-151.75,78.34,18.14
176,East London,0,ZA,1535000400,57,-33.02,27.91,51.8,4.7
177,Nyurba,48,RU,1535003058,75,63.29,118.35,62.86,3.94
178,Victor Harbor,0,AU,1535000400,17,-35.55,138.62,66.2,16.11
179,Tsabong,0,BW,1535003059,39,-26.02,22.4,39.73,3.6
180,Sechura,12,PE,1535003059,92,-5.56,-80.82,63.94,10.76
181,Ranong,75,TH,1535000400,100,9.96,98.62,80.6,6.93
182,Micheweni,48,TZ,1535003059,100,-4.97,39.83,77.08,13.33
183,Meadow Lake,0,CA,1535003060,83,54.13,-108.44,57.46,3.27
184,Kuldur,80,RU,1535003060,76,49.22,131.63,70.33,3.27
185,Sao Joao do Piaui,0,BR,1535003060,64,-8.36,-42.25,72.94,13.22
186,Lahaina,90,US,1535000160,84,20.87,-156.68,80.06,21.92
187,Pevek,0,RU,1535003061,94,69.7,170.27,46.3,11.99
188,Hofn,48,IS,1535003061,100,64.25,-15.21,47.2,3.15
189,Mahebourg,40,MU,1535000400,61,-20.41,57.7,77.0,11.41
190,Taguisa,36,PH,1535003061,76,6.7,124.04,81.13,3.71
191,Parsabad,0,AZ,1535003062,53,39.65,47.92,82.03,4.72
192,Sibolga,76,ID,1535003062,89,1.74,98.78,75.46,3.15
193,Konevo,0,BG,1535003062,48,41.67,25.61,72.85,7.18
194,Leningradskiy,88,RU,1535002822,89,69.38,178.42,43.33,10.87
195,Norman Wells,90,CA,1535000400,70,65.28,-126.83,42.8,10.29
196,Keuruu,75,FI,1535001600,82,62.26,24.71,62.6,13.87
197,Vetlanda,0,SE,1535001600,82,57.43,15.09,60.8,5.82
198,Esperance,75,TT,1535000400,100,10.24,-61.45,75.2,5.17
199,Derzhavinsk,0,KZ,1535003064,41,51.1,66.31,79.87,9.86
200,Playa Vicente,76,MX,1535003064,94,17.83,-95.81,72.58,4.83
201,Marsaxlokk,20,MT,1535001300,83,35.84,14.54,75.2,8.05
202,Richards Bay,92,ZA,1535003064,99,-28.77,32.06,66.73,4.72
203,Inirida,56,CO,1535003064,97,3.87,-67.92,72.31,0.92
204,Ketchikan,75,US,1535000160,90,55.34,-131.65,57.02,4.7
205,Ornskoldsvik,0,SE,1535001600,87,63.29,18.72,53.6,6.93
206,Kindberg,0,AT,1535001600,93,47.51,15.45,62.6,2.24
207,Aklavik,75,CA,1535000400,56,68.22,-135.01,42.8,4.7
208,Kuusamo,90,FI,1535001600,100,65.96,29.19,46.4,10.29
209,Kahului,75,US,1535000160,96,20.89,-156.47,77.0,16.11
210,Karwar,92,IN,1535003066,99,14.8,74.13,73.48,4.38
211,Lagoa,0,PT,1535000400,49,37.14,-8.45,73.4,4.7
212,Tiksi,92,RU,1535003066,95,71.64,128.87,46.93,9.53
213,Evensk,0,RU,1535003067,80,61.92,159.24,58.9,2.04
214,Mercedes,0,UY,1535003067,98,-33.25,-58.03,47.56,10.98
215,Ballina,75,IE,1535002200,100,54.11,-9.15,51.8,6.93
216,Pangnirtung,92,CA,1535003068,88,66.15,-65.72,42.52,13.44
217,Batagay-Alyta,92,RU,1535003068,89,67.8,130.41,55.12,4.38
218,Vilcun,92,CL,1535003068,98,-38.65,-72.23,37.21,6.96
219,Serebryansk,75,KZ,1535000400,53,49.68,83.3,71.6,11.18
220,Sindor,92,RU,1535003069,93,62.87,51.9,52.42,6.17
221,Cabedelo,20,BR,1535000400,88,-6.97,-34.84,69.8,5.82
222,Tura,88,IN,1535003069,97,25.52,90.21,81.58,3.27
223,Taoudenni,88,ML,1535003069,39,22.68,-3.98,87.16,9.64
224,Salalah,90,OM,1534999800,100,17.01,54.1,73.4,2.71
225,Nioro,80,GM,1535003070,99,13.79,-15.05,72.58,7.74
226,Ilulissat,92,GL,1534999800,86,69.22,-51.1,39.2,5.82
227,Port Lincoln,100,AU,1535003070,100,-34.72,135.86,54.13,6.29
228,Belaya Gora,0,RU,1535003071,61,68.54,146.19,59.71,8.75
229,Ossora,56,RU,1535003071,97,59.24,163.07,55.03,6.62
230,Vila Velha,40,BR,1535000400,83,-3.71,-38.6,78.8,3.36
231,Pimentel,8,BR,1535003071,75,-3.7,-45.5,75.46,5.61
232,Airai,44,TL,1535003072,44,-8.93,125.41,83.02,1.03
233,Hirara,75,JP,1535000400,79,24.8,125.28,87.8,20.8
234,Ambilobe,32,MG,1535003072,49,-13.19,49.05,80.59,10.31
235,Ugoofaaru,12,MV,1535003072,98,5.67,73.0,83.11,14.23
236,Mount Gambier,44,AU,1535003073,70,-37.83,140.78,58.99,4.94
237,Gusau,64,NG,1535003073,97,12.17,6.66,70.24,7.74
238,San Javier,0,ES,1535002200,83,37.81,-0.83,69.8,5.82
239,Conde,68,BR,1535003073,100,-11.81,-37.61,73.39,7.29
240,Dhemaji,75,IN,1535000400,89,27.48,94.56,84.2,4.7
241,Provideniya,75,RU,1535000400,76,64.42,-173.23,51.8,11.18
242,Alyangula,0,AU,1535003074,77,-13.85,136.42,80.59,8.97
243,Virden,0,CA,1535003074,55,49.85,-100.93,64.39,8.63
244,Kilindoni,0,TZ,1535003075,94,-7.91,39.67,78.43,6.96
245,Nome,1,US,1535001300,68,30.04,-94.42,82.04,3.36
246,Ust-Omchug,0,RU,1535003075,32,61.13,149.63,68.71,3.38
247,The Woodlands,90,US,1535002500,88,30.17,-95.5,84.02,5.82
248,Cayenne,0,GF,1535000400,100,4.94,-52.33,73.4,7.63
249,Whitehorse,90,CA,1535000400,93,60.72,-135.06,51.8,2.24
250,Luderitz,0,NA,1535003076,93,-26.65,15.16,48.1,16.02
251,Vao,24,EE,1535003076,73,59.1,26.19,63.49,13.33
252,Meiganga,92,CM,1535003076,91,6.52,14.29,64.75,3.27
253,Ciudad Bolivar,76,VE,1535002821,87,8.12,-63.55,75.91,11.88
254,Isangel,88,VU,1535003077,100,-19.55,169.27,69.7,17.81
255,Port-Gentil,75,GA,1535000400,94,-0.72,8.78,73.4,9.19
256,Santa Barbara,1,US,1535000220,75,34.42,-119.7,69.08,3.36
257,Santiago,40,CL,1535000400,93,-33.44,-70.65,41.0,4.7
258,Shingu,75,JP,1535000400,88,33.72,135.99,80.6,24.16
259,Troitsko-Pechorsk,64,RU,1535003079,86,62.71,56.19,54.4,3.49
260,Kalmunai,48,LK,1535003079,56,7.42,81.82,91.39,3.71
261,Walvis Bay,0,NA,1535003079,100,-22.95,14.51,52.33,8.19
262,Marshfield,1,US,1535001300,100,42.09,-70.71,71.06,7.63
263,Harper,40,US,1535001300,49,30.3,-99.24,84.02,7.96
264,Tuatapere,92,NZ,1535003080,100,-46.13,167.69,46.21,9.42
265,Uyuni,0,BO,1535003080,47,-20.46,-66.82,17.14,4.94
266,Kaeo,0,NZ,1535002882,72,-35.1,173.78,52.06,10.65
267,Bolshaya Martynovka,0,RU,1535003080,34,47.27,41.67,73.84,13.0
268,Rio Grande,92,BR,1535003080,100,-32.03,-52.1,53.41,8.97
269,Stavrovo,20,RU,1535003081,71,56.13,40.01,57.82,9.86
270,Sitka,64,US,1535003081,94,37.17,-99.65,67.0,15.46
271,Dunedin,92,NZ,1535003081,99,-45.87,170.5,41.71,3.27
272,Emerald,0,AU,1535002835,21,-23.53,148.16,79.96,8.52
273,Lundazi,0,ZM,1535003082,61,-12.29,33.17,68.08,12.66
274,Lisala,92,CD,1535003082,99,2.15,21.52,67.72,4.16
275,Ostrovnoy,8,RU,1535003082,94,68.05,39.51,48.91,11.77
276,Sao Filipe,100,CV,1535003082,100,14.9,-24.5,76.0,10.76
277,Ambon,90,FR,1535002200,93,47.55,-2.56,62.6,3.36
278,Sedhiou,92,SN,1535003083,100,12.71,-15.56,70.78,4.83
279,Maungaturoto,76,NZ,1535003083,100,-36.11,174.36,54.94,15.01
280,Karratha,0,AU,1535002874,9,-20.74,116.85,83.38,13.11
281,Viking,0,CA,1535003083,68,53.1,-111.78,58.63,4.05
282,Belmonte,0,PT,1535002858,77,40.36,-7.35,59.35,2.71
283,Cherskiy,0,RU,1535002864,68,68.75,161.3,49.99,3.15
284,Milton,1,US,1535002500,82,44.64,-73.11,64.94,3.36
285,Hobyo,48,SO,1535003084,68,5.35,48.53,78.61,16.02
286,Kolomna,0,RU,1535000400,66,55.09,38.77,53.6,6.71
287,Weiden,0,DE,1535001600,82,49.81,7.3,62.6,1.12
288,Mana,40,RS,1535002200,100,43.52,20.24,64.4,1.12
289,Silifke,0,TR,1535003085,60,36.38,33.93,80.77,3.38
290,Makakilo City,1,US,1535000160,67,21.35,-158.09,82.04,6.93
291,Sao Joao da Barra,80,BR,1535003086,97,-21.64,-41.05,73.39,16.91
292,Herat,0,AF,1535000100,19,34.35,62.22,80.6,12.75
293,Makhinjauri,20,GE,1535000400,83,41.67,41.69,75.2,8.05
294,Bambanglipuro,8,ID,1535003086,72,-7.95,110.28,81.31,5.61
295,Shelton,90,US,1535002500,83,47.22,-123.1,62.06,12.75
296,Nacala,80,MZ,1535003087,92,-14.56,40.69,76.27,9.42
297,Vidim,0,CZ,1535002200,63,50.47,14.53,66.2,2.24
298,Thongwa,90,MM,1535002200,74,16.76,96.52,86.0,8.05
299,Saint Anthony,1,US,1535000160,82,43.97,-111.68,53.96,9.17
300,Nola,92,CF,1535003088,96,3.52,16.05,67.99,2.48
301,Gimli,0,CA,1535003088,46,50.63,-96.99,68.62,12.44
302,Torbay,90,CA,1535002860,93,47.66,-52.73,66.2,9.17
303,Constitucion,32,MX,1535003089,55,23.99,-104.67,67.0,7.4
304,Grindavik,75,IS,1535000400,93,63.84,-22.43,48.2,4.7
305,Kruisfontein,8,ZA,1535003089,92,-34.0,24.73,55.66,14.0
306,Paamiut,68,GL,1535002847,96,61.99,-49.67,41.44,11.77
307,Marzuq,0,YE,1535003090,19,14.4,46.47,88.78,3.38
308,Husavik,0,CA,1535002803,46,50.56,-96.99,68.62,12.44
309,Upernavik,20,GL,1535003090,94,72.79,-56.15,40.18,5.17
310,Shadrinsk,0,RU,1535003091,69,56.09,63.63,70.15,6.51
311,Merauke,80,ID,1535003091,77,-8.49,140.4,83.74,10.42
312,Nevers,0,FR,1535002200,77,46.99,3.16,64.4,3.36
313,Batemans Bay,36,AU,1535003091,78,-35.71,150.18,55.84,4.94
314,San Julian,75,SV,1534999800,94,13.7,-89.56,75.2,2.24
315,Lima,20,PE,1535003031,80,-12.06,-77.04,55.84,2.71
316,Ostashkov,8,RU,1535003092,78,57.14,33.12,59.08,9.75
317,Medicine Hat,1,CA,1535000400,36,50.04,-110.68,62.6,4.7
318,Bacum,36,MX,1535003093,87,27.55,-110.08,80.14,2.15
319,Babu,88,CN,1535003093,82,23.23,104.89,74.83,3.38
320,Montepuez,12,MZ,1535003093,58,-13.13,39.0,72.58,4.5
321,Palmer,75,US,1535000160,89,61.6,-149.11,59.0,4.7
322,Doka,56,SD,1535003094,87,13.52,35.76,75.82,7.96
323,Nishihara,75,JP,1535000400,66,35.74,139.53,89.6,13.87
324,Rawlins,90,US,1535001000,80,41.79,-107.24,55.94,8.05
325,Wanlaweyn,92,SO,1535003094,70,2.62,44.89,78.52,9.86
326,Sakaiminato,75,JP,1535000400,66,35.55,133.23,89.6,12.75
327,Saint-Pierre,0,FR,1535002200,88,48.95,4.24,62.6,5.82
328,Yangjiang,20,CN,1535003095,100,21.85,111.96,83.38,8.3
329,Nenjiang,8,CN,1535003096,81,49.17,125.23,76.09,4.5
330,Valparaiso,1,US,1535001300,97,41.47,-87.06,64.04,5.95
331,La Ronge,75,CA,1535000400,76,55.1,-105.3,53.6,19.46
332,Ust-Tsilma,32,RU,1535003096,81,65.44,52.15,56.2,4.05
333,Nouadhibou,12,MR,1535000400,88,20.93,-17.03,68.0,12.75
334,Letlhakane,0,BW,1535003097,40,-21.42,25.59,59.44,6.62
335,Khani,75,GE,1535000400,83,41.96,42.96,73.4,4.7
336,Atbasar,0,KZ,1535003097,55,51.81,68.36,75.82,9.75
337,Kampot,56,KH,1535003098,74,10.62,104.18,85.9,14.67
338,Gladstone,0,AU,1535003098,54,-23.84,151.26,71.23,8.41
339,Perevolotskiy,12,RU,1535003098,73,51.88,54.19,62.68,11.99
340,Calatayud,8,ES,1535002200,82,41.35,-1.64,69.8,1.12
341,Seoul,75,KR,1535002200,58,37.57,126.98,91.76,14.99
342,Kidal,8,ML,1535003099,69,18.44,1.41,78.16,7.85
343,Marawi,64,PH,1535003099,60,8.0,124.29,81.58,2.93
344,Punta de Bombon,88,PE,1535003099,100,-17.17,-71.79,60.34,9.98
345,Manzil Salim,0,TN,1535000400,87,35.86,8.48,60.8,2.82
346,Biu,76,NG,1535003100,97,10.61,12.19,69.88,7.18
347,Eureka,90,US,1535000100,89,40.8,-124.16,59.0,2.59
348,Siddipet,80,IN,1535003100,77,18.1,78.85,81.31,18.92
349,Zhongshu,88,CN,1535003100,83,24.52,103.77,70.96,5.73
350,Chabahar,8,IR,1535003100,97,25.29,60.65,85.18,6.85
351,Novo Aripuana,12,BR,1535003101,85,-5.12,-60.38,75.55,1.25
352,Butembo,92,CD,1535003101,94,0.12,29.29,63.85,2.93
353,Lompoc,1,US,1535002500,82,34.64,-120.46,62.06,3.36
354,Baft,0,IR,1535003101,12,29.23,56.61,78.79,8.41
355,Vozuca,0,BA,1535002200,93,44.36,18.36,62.6,2.24
356,Veraval,90,FR,1535002200,82,49.65,0.71,64.4,8.05
357,Dvinskoy,0,RU,1535003102,70,62.16,45.12,51.61,10.54
358,Port Blair,44,IN,1535003102,93,11.67,92.75,84.19,17.25
359,Weston,75,US,1535000160,78,41.2,-73.38,73.94,3.36
360,Muisne,64,EC,1535003103,96,0.61,-80.02,71.23,4.72
361,Nanfeng,88,CN,1535003103,81,27.22,116.52,83.74,4.5
362,Grants Pass,75,US,1535000160,52,42.44,-123.33,82.04,6.93
363,Nyaunglebin,92,MM,1535003105,100,17.95,96.73,75.91,5.73
364,Locri,75,IT,1535000100,83,38.24,16.26,71.6,4.7
365,Arroyo,1,US,1535000040,96,41.39,-78.88,59.0,5.82
366,Hereford,56,GB,1535003106,99,52.06,-2.72,59.53,8.3
367,Macheng,68,CN,1535003106,70,31.18,115.03,82.3,8.75
368,Tazovskiy,0,RU,1535003106,56,67.47,78.7,68.98,15.12
369,Tyrma,36,RU,1535003106,74,50.04,132.17,71.59,3.6
370,Biloela,0,AU,1535003107,28,-24.4,150.51,72.58,6.17
371,Chibombo,0,ZM,1535003107,40,-14.68,28.09,66.28,11.77
372,Russell,0,AR,1535000400,52,-33.01,-68.8,44.6,3.36
373,Port Keats,0,AU,1535003108,42,-14.25,129.55,87.43,3.71
374,Mikuni,64,JP,1535003108,57,36.22,136.15,89.05,17.25
375,Te Anau,92,NZ,1535003109,98,-45.41,167.72,40.0,3.94
376,Ponta do Sol,64,BR,1535003109,70,-20.63,-46.0,56.29,4.61
377,Hasaki,75,JP,1535000400,74,35.73,140.83,91.4,17.22
378,Sinnamary,0,GF,1535003110,100,5.38,-52.96,80.23,11.43
379,Osorno,88,CL,1535003110,98,-40.57,-73.14,41.71,6.4
380,Grand Gaube,40,MU,1535000400,61,-20.01,57.66,77.0,11.41
381,Novoanninskiy,0,RU,1535003113,40,50.53,42.67,67.18,6.29
382,Aden,0,YE,1535003114,83,12.79,45.03,81.58,23.73
383,Pouebo,0,NC,1535003114,60,-20.4,164.57,75.01,4.72
384,Marovoay,0,MG,1535000400,56,-16.11,46.64,73.4,9.17
385,Nadym,0,RU,1535003114,61,65.53,72.51,67.63,13.0
386,Dzerzhinsk,0,RU,1535000400,76,56.24,43.46,53.6,6.71
387,Galateni,0,RO,1535002200,64,44.22,25.35,71.6,4.7
388,Staryy Nadym,0,RU,1535003115,61,65.61,72.68,67.63,13.0
389,Kavaratti,48,IN,1535003115,100,10.57,72.64,79.6,12.1
390,Pacific Grove,90,US,1535000100,83,36.62,-121.92,62.06,3.36
391,Terney,100,RU,1535003116,74,45.05,136.61,72.94,5.73
392,Luanda,75,AO,1535000400,88,-8.83,13.24,69.8,6.93
393,Vardo,1,US,1535002500,72,39.62,-77.74,68.0,8.05
394,Kikwit,56,CD,1535003116,98,-5.04,18.82,70.06,4.16
395,Hamilton,40,CA,1535000400,93,43.26,-79.87,62.6,5.82
396,Mae Sai,90,MM,1535000400,94,20.44,99.89,80.6,4.7
397,Salinopolis,0,BR,1535003117,99,-0.61,-47.36,79.51,10.76
398,Sochi,20,RU,1535000400,69,43.6,39.73,75.2,6.71
399,Berlevag,40,NO,1534999800,75,70.86,29.09,46.4,5.82
400,Verkhoyansk,80,RU,1535003118,77,67.55,133.39,60.52,3.83
401,Acajutla,12,SV,1535003118,84,13.59,-89.83,74.11,2.37
402,Baker City,1,US,1535000160,48,44.77,-117.83,64.94,6.93
403,Coracora,0,PE,1535003119,89,-15.02,-73.78,31.18,5.17
404,Fortuna,0,ES,1535002200,77,38.18,-1.13,69.8,4.7
405,Khilok,20,RU,1535003119,56,51.36,110.46,75.1,4.05
406,Yulara,0,AU,1535000400,23,-25.24,130.99,64.4,13.87
407,Noumea,90,NC,1535000400,49,-22.28,166.46,71.6,8.05
408,Humaita,0,AR,1535000400,92,-24.93,-65.37,44.6,2.24
409,Alta Floresta,92,BR,1535002887,59,-9.87,-56.08,80.23,2.82
410,Thaba-Tseka,0,LS,1535003120,49,-29.52,28.61,40.27,3.6
411,Susanville,1,US,1535001300,30,40.42,-120.65,69.8,9.17
412,Sandwick,92,GB,1534999800,100,54.57,-2.89,46.4,5.82
413,Faxinal,92,BR,1535003121,100,-24.0,-51.32,60.07,3.38
414,Shimoda,40,JP,1535001300,74,34.7,138.93,87.8,18.34
415,Santa Maria,0,BR,1535003042,89,-29.69,-53.81,35.14,4.94
416,Quelimane,0,MZ,1535000400,88,-17.88,36.89,69.8,5.82
417,Mufulira,0,ZM,1535002946,43,-12.55,28.24,61.24,8.86
418,Upata,64,VE,1535003123,96,8.02,-62.41,70.15,3.04
419,Vestmannaeyjar,32,IS,1535003123,100,63.44,-20.27,46.03,6.96
420,Zharkent,0,KZ,1535003123,43,44.17,80.0,64.57,3.49
421,Flinders,75,AU,1535000400,54,-34.58,150.85,57.2,10.29
422,Kiama,75,AU,1535000400,54,-34.67,150.86,57.2,10.29
423,Osinki,0,PL,1535003124,73,54.14,22.99,61.15,7.52
424,Avera,1,US,1535001300,85,33.19,-82.53,78.08,5.73
425,Kailua,40,US,1535000160,64,21.39,-157.74,82.04,11.41
426,Waynesboro,75,US,1535001300,93,35.32,-87.76,71.06,4.94
427,Egvekinot,0,RU,1535003125,66,66.32,-179.17,52.42,5.95
428,La Rioja,0,AR,1535003079,76,-29.41,-66.86,42.7,1.14
429,Sharan,0,AF,1535003125,32,33.15,68.78,78.79,2.26
430,Porto Walter,0,BR,1535003126,92,-8.27,-72.74,67.99,2.04
431,Karlskoga,75,SE,1535001600,88,59.33,14.52,64.4,12.75
432,Ulaanbaatar,75,MN,1535002200,41,47.92,106.92,75.2,6.71
433,Ames,40,US,1535001300,87,42.03,-93.62,60.08,5.17
434,Talnakh,0,RU,1535002831,59,69.49,88.39,62.59,5.5
435,Phuket,90,TH,1535002200,88,7.89,98.4,77.0,2.24
436,Aranjuez,0,ES,1535002200,56,40.03,-3.6,69.8,2.93
437,Manbij,0,SY,1535001600,30,36.53,37.96,86.0,3.36
438,Lexington,1,US,1535000100,77,38.05,-84.5,60.98,3.71
439,Lata,92,IN,1535003129,100,30.78,78.62,62.5,1.59
440,Red Bluff,1,US,1535000100,44,40.18,-122.24,77.0,3.6
441,Basco,1,US,1535001300,93,40.33,-91.2,60.98,2.71
442,Namwala,0,ZM,1535003129,57,-15.75,26.45,61.6,3.94
443,Aloleng,92,PH,1535003130,100,16.13,119.78,78.34,14.0
444,Klaksvik,44,FO,1535001600,93,62.23,-6.59,50.0,11.41
445,Westlock,0,CA,1535003130,77,54.15,-113.85,55.75,2.82
446,Salamanca,0,ES,1535002200,93,40.97,-5.66,53.6,1.12
447,Los Llanos de Aridane,8,ES,1535002200,83,28.66,-17.92,69.8,8.05
448,Lavrentiya,68,RU,1535003132,93,65.58,-170.99,48.28,4.83
449,Tyukalinsk,48,RU,1535003134,100,55.87,72.2,58.9,5.84
450,Hovd,75,NO,1535001600,93,63.83,10.7,51.8,10.29
451,Oranjestad,20,AW,1535000400,78,12.52,-70.03,82.4,20.8
452,Sobolevo,0,RU,1535003135,83,54.43,31.9,58.72,4.61
453,Fukuma,75,JP,1535000400,44,33.77,130.47,98.6,16.11
454,Chumikan,92,RU,1535003136,99,54.72,135.31,57.37,3.6
455,Bowen,0,AU,1535000400,32,-20.01,148.25,80.6,13.87
456,Skowhegan,1,US,1535000160,93,44.77,-69.72,64.04,6.17
457,Ashcroft,40,AU,1535002200,67,-33.91,150.9,62.6,13.87
458,Portland,90,US,1535002020,74,45.52,-122.67,68.0,8.05
459,Kawasaki,75,JP,1535000400,70,35.52,139.71,89.6,11.41
460,Eldorado,90,MX,1534999200,100,24.32,-107.36,77.0,2.59
461,Sisimiut,100,GL,1535003139,98,66.94,-53.67,36.85,7.96
462,Tabuleiro do Norte,0,BR,1535003139,56,-5.24,-38.13,75.91,10.98
463,Fairbanks,90,US,1535000880,76,64.84,-147.72,54.32,4.7
464,Corrente,12,BR,1535003139,74,-17.45,-44.68,64.03,8.19
465,Camabatela,0,AO,1535003139,89,-8.19,15.37,57.19,1.59
466,Ocosingo,92,MX,1535003140,94,16.91,-92.09,66.28,1.81
467,Jalu,0,LY,1535003140,41,29.03,21.55,84.64,4.72
468,Savyntsi,0,UA,1535003140,39,49.4,37.05,68.26,6.4
469,Jiaonan,0,CN,1535000400,48,35.88,119.98,86.0,17.9
470,Freeport,88,BS,1535003141,95,26.54,-78.7,84.01,10.09
471,Zaysan,0,KZ,1535003141,44,47.47,84.87,68.35,3.38
472,Matias Barbosa,80,BR,1535003141,93,-21.87,-43.32,54.85,2.93
473,Axim,92,GH,1535003141,99,4.87,-2.24,74.83,12.66
474,Honiara,75,SB,1535000400,70,-9.43,159.96,87.8,4.7
475,Channel-Port aux Basques,92,CA,1535003142,91,47.57,-59.14,66.82,23.62
476,Duncan,1,US,1535001300,81,34.5,-97.96,73.94,5.82
477,Algiers,1,US,1535001300,62,29.94,-90.04,84.02,17.22
478,Lashio,92,MM,1535003143,96,22.93,97.75,72.4,1.14
479,Severobaykalsk,24,RU,1535003143,68,55.65,109.32,65.92,2.37
480,Mopipi,0,BW,1535003143,27,-21.2,24.86,57.46,3.15
481,Thayetmyo,92,MM,1535003144,100,19.32,95.18,78.16,9.75
482,Kontagora,92,NG,1535003144,98,10.4,5.47,72.4,5.06
483,Buala,64,SB,1535003144,93,-8.15,159.59,82.03,5.06
484,Shellbrook,75,CA,1535000400,76,53.22,-106.39,53.6,2.93
485,Nakamura,75,JP,1535001360,59,35.17,136.87,89.6,17.22
486,Quesnel,90,CA,1535000400,87,52.98,-122.49,51.8,2.24
487,Waingapu,48,ID,1535003145,53,-9.65,120.26,84.28,9.86
488,Mantua,0,IT,1535001600,77,45.16,10.79,73.4,2.24
489,Harrisonburg,1,US,1535002500,80,38.45,-78.87,69.08,3.36
490,Wanning,40,AT,1535001600,82,48.64,13.53,66.2,3.15
491,Strezhevoy,75,RU,1535000400,93,60.73,77.6,57.2,4.47
492,Seryshevo,12,RU,1535003150,79,51.09,128.38,77.35,4.72
493,San Cristobal,75,EC,1535000400,87,-0.39,-78.55,48.2,8.05
494,Miranda,20,CO,1535000400,78,3.25,-76.23,71.6,6.93
495,Abu Samrah,0,SY,1535003151,76,35.3,37.18,76.36,8.52
496,Okhotsk,24,RU,1535003151,89,59.36,143.24,62.59,6.06
497,Port Hawkesbury,90,CA,1535000400,94,45.62,-61.36,71.6,13.87
498,Inhambane,0,MZ,1535003152,85,-23.87,35.38,74.92,7.96
499,Kirksville,1,US,1535000100,80,40.19,-92.58,57.92,2.71
500,Mbanza-Ngungu,8,CD,1535003152,84,-5.25,14.87,66.01,5.17
501,Suleja,92,NG,1535003152,99,9.18,7.18,70.06,2.71
502,North Bend,90,US,1535001300,96,43.41,-124.22,57.02,2.37
503,Ibra,24,OM,1535003153,58,22.69,58.55,87.16,3.6
504,Rio Brilhante,80,BR,1535003153,99,-21.8,-54.54,59.44,5.61
505,Totness,40,US,1535001300,88,33.74,-80.8,78.98,7.63
506,Saint-Joseph,0,FR,1535002200,64,43.56,6.97,75.2,3.36
507,Nanchong,0,CN,1535003154,45,30.8,106.08,92.83,8.19
508,Shitkino,12,RU,1535003154,61,56.37,98.35,69.52,5.84
509,Yarada,68,IN,1535003155,100,17.65,83.27,83.29,21.72
510,Tomatlan,0,MX,1535003155,91,19.93,-105.25,73.66,2.15
511,Kolda,88,SN,1535003155,99,12.89,-14.94,70.24,5.61
512,Requena,0,ES,1535002200,68,39.49,-1.1,71.6,2.24
513,Skeldon,12,GY,1535003156,100,5.88,-57.13,80.86,12.44
514,Pangoa,56,PE,1535003156,91,-12.12,-73.0,63.04,0.58
515,Bonfim,64,GY,1535003157,98,3.36,-59.84,70.69,3.04
516,Acapulco,20,MX,1534999500,79,16.86,-99.88,84.2,3.36
517,Kroya,12,ID,1535002898,49,-6.5,108.06,91.66,4.27
518,Bonthe,92,SL,1535003158,100,7.53,-12.5,71.68,2.93
519,Shelburne,1,CA,1535000400,100,44.08,-80.2,60.8,2.24
520,Aljezur,0,PT,1535002878,96,37.31,-8.8,65.83,9.42
521,Mantamados,0,GR,1534999800,69,39.31,26.33,77.0,6.93
522,Zhigansk,20,RU,1535003159,57,66.77,123.37,59.98,8.75
523,Ankara,0,TR,1535001600,30,39.92,32.85,69.8,10.29
524,Saint-Augustin,0,FR,1535002200,93,44.83,-0.61,68.0,5.82
525,Port Moresby,40,PG,1535000400,66,-9.47,147.16,86.0,23.04
526,Muzaffarabad,64,PK,1535003160,83,34.37,73.47,78.25,2.71
527,Goderich,68,CA,1535003160,72,43.74,-81.71,65.92,13.22
528,Rawson,68,AR,1535003160,27,-43.3,-65.11,57.73,20.27
529,Prado,100,BR,1535003161,100,-17.34,-39.22,75.28,8.41
530,Nayudupeta,24,IN,1535003161,46,13.91,79.9,96.16,13.78
531,Coihaique,68,CL,1535000400,80,-45.58,-72.07,41.0,6.93
532,Ixtapa,75,MX,1534999860,100,20.71,-105.21,77.0,5.82
533,Florence,1,US,1535001300,75,34.8,-87.68,71.06,3.36
534,Diego de Almagro,20,CL,1535003162,84,-26.39,-70.05,47.11,1.14
535,Iwanai,88,JP,1535003162,88,42.97,140.51,71.59,4.16
536,Tazmalt,20,DZ,1535000400,88,36.39,4.4,69.8,6.93
537,Nara,75,JP,1535001600,66,34.68,135.8,93.2,13.87
538,Turtas,64,RU,1535003163,84,58.94,69.13,58.99,3.71
539,Santa Lucia,40,IT,1535000100,60,39.93,9.66,75.2,2.71
540,Rock Sound,88,BS,1535003164,100,24.9,-76.2,83.29,12.77
541,Hervey Bay,0,AU,1535002899,81,-25.3,152.85,68.08,4.05
542,Porto Seguro,75,BR,1535000400,94,-16.44,-39.06,69.8,3.36
543,Tokur,44,RU,1535003165,65,53.13,132.9,65.2,3.15
544,Paso de Carrasco,0,UY,1535000400,87,-34.86,-56.05,42.8,4.7
545,Stokmarknes,75,NO,1535001600,81,68.56,14.91,53.6,16.11
546,Tiznit,24,MA,1535003165,97,29.7,-9.73,65.74,2.59
